[{"name":"Volver de Carne Y Alma","address":"Rua Luís de Freitas Branco, 5D, Lumiar, Lisboa","locality":"Lumiar","average_cost_for_two":"80","featured_image":"https://b.zmtcdn.com/data/pictures/chains/9/8204019/89a3e0b37869e2e9b737a65dcf9c62a3.jpg?resize=1224%3A695&crop=1200%3A464%3B10%2C93","user_rating":4.9,"phone_number":308809312,"cuisines":["Argentine","Grill","Steak"],"schedule":["12:30","00:30"],"meal_types":["Lunch","Dinner"],"latitude":"38.7701864533","longitude":"-9.1608465090"},{"name":"Dom Queijo","address":"Campo Grande, 232C","locality":"Alvalade","average_cost_for_two":"50","featured_image":"https://b.zmtcdn.com/data/res_imagery/18498543_RESTAURANT_702b8764333439fb7b60ad13f5b5c17f.jpg?fit=around%7C1200%3A464&crop=1200%3A464%3B0%2C0","user_rating":4.9,"phone_number":308805318,"cuisines":["Contemporary","Fondue","Tapas"],"schedule":["12:00","23:00"],"meal_types":["Lunch","Dinner"],"latitude":"38.7539334581","longitude":"-9.1503003985"},{"name":"Loco","address":"Rua dos Navegantes, 53B, Lapa-Estrela, Lisboa","locality":"Lapa-Estrela","average_cost_for_two":"170","featured_image":"https://b.zmtcdn.com/data/res_imagery/8213715_RESTAURANT_45f3d88999471931c18185ce79efa615.jpg?fit=around%7C1200%3A464&crop=1200%3A464%3B0%2C0","user_rating":4.9,"phone_number":213951861,"cuisines":["Author"],"schedule":["19:00","23:00"],"meal_types":["Dinner"],"latitude":"38.7124155684","longitude":"-9.1605880111"},{"name":"Nómada","address":"Avenida Visconde Valmor, 40A, Campo Pequeno, Lisboa","locality":"Campo Pequeno","average_cost_for_two":"60","featured_image":"https://b.zmtcdn.com/data/pictures/chains/1/18335531/49d2943e8006565411fa05078b34de3d.jpg?resize=1211%3A604&crop=1200%3A464%3B3%2C53","user_rating":4.8,"phone_number":308809326,"cuisines":["Sushi","Contemporary"],"schedule":["12:30","23:00"],"meal_types":["Lunch","Dinner"],"latitude":"38.7381090555","longitude":"-9.1475900263"},{"name":"Ramiro","address":"Avenida Almirante Reis, 1H, Mouraria, Lisboa","locality":"Mouraria","average_cost_for_two":"60","featured_image":"https://b.zmtcdn.com/data/res_imagery/8202207_RESTAURANT_e26157bd63b5420091fa0e7773fd07b1.jpg?fit=around%7C1200%3A464&crop=1200%3A464%3B0%2C0","user_rating":4.8,"phone_number":218851024,"cuisines":["Seafood"],"schedule":["12:00","00:30"],"meal_types":["Lunch","Dinner"],"latitude":"38.7203004487","longitude":"-9.1356977820"},{"name":"Mini Bar","address":"Rua António Maria Cardoso, 58, Chiado, Lisboa","locality":"Chiado","average_cost_for_two":"120","featured_image":"https://b.zmtcdn.com/data/res_imagery/8209776_RESTAURANT_1e07cbe605a5b5786a4f383cdc0962ce.jpg?fit=around%7C1200%3A464&crop=1200%3A464%3B0%2C0","user_rating":4.8,"phone_number":211305393,"cuisines":["Author","Contemporary","Petiscos","Portuguese"],"schedule":["19:00","02:00"],"meal_types":["Lunch","Dinner"],"latitude":"38.7093582789","longitude":"-9.1423510015"},{"name":"Yakuza First Floor","address":"Rua da Escola Politécnica, 231, Rato, Lisboa","locality":"Rato","average_cost_for_two":"80","featured_image":"https://b.zmtcdn.com/data/pictures/chains/5/8214585/28e93c2802f506d019d05306c8a8d6ae.jpg?fit=around%7C1200%3A464&crop=1200%3A464%3B0%2C108","user_rating":4.8,"phone_number":308808920,"cuisines":["Japanese","Sushi","Beverages"],"schedule":["12:30","23:00"],"meal_types":["Lunch","Dinner"],"latitude":"38.7192250630","longitude":"-9.1536860168"},{"name":"Go Juu","address":"Rua Marquês Sá da Bandeira, 46A, Praça de Espanha, Lisboa","locality":"Praça de Espanha","average_cost_for_two":"50","featured_image":"https://b.zmtcdn.com/data/res_imagery/8212477_RESTAURANT_f80b3ec17ec4f23483b12e9f7097ec6e.jpg?fit=around%7C1200%3A464&crop=1200%3A464%3B0%2C0","user_rating":4.8,"phone_number":218280704,"cuisines":["Sushi","Japanese"],"schedule":["12:30","22:30"],"meal_types":["Lunch","Dinner"],"latitude":"38.7358617771","longitude":"-9.1521641985"},{"name":"Boa-Bao","address":"Largo Rafael Bordalo Pinheiro, 30, Chiado, Lisboa","locality":"Chiado","average_cost_for_two":"40","featured_image":"https://b.zmtcdn.com/data/pictures/0/18487870/6f7c0e96f8d14a4f8acb655bf5d1e0f5.jpg?resize=1202%3A802&crop=1200%3A464%3B-1%2C83","user_rating":4.7,"phone_number":308808367,"cuisines":["Oriental","Thai","Malaysian","Filipino","Vietnamese","Korean","Japanese","Chinese"],"schedule":["12:00","23:30"],"meal_types":["Lunch","Dinner"],"latitude":"38.7115650554","longitude":"-9.1415704787"},{"name":"Forno d'Oro","address":"Rua Artilharia 1, 16, Rato, Lisboa","locality":"Rato","average_cost_for_two":"45","featured_image":"https://b.zmtcdn.com/data/res_imagery/8212322_RESTAURANT_2cc50ebc062e92c4a439dc484e49512b.jpg?fit=around%7C1200%3A464&crop=1200%3A464%3B0%2C0","user_rating":4.7,"phone_number":213879944,"cuisines":["Pizza","Italian"],"schedule":["12:00","23:00"],"meal_types":["Lunch","Dinner"],"latitude":"38.7234870109","longitude":"-9.1544196010"},{"name":"O Talho","address":"Rua Carlos Testa, 1B, Praça de Espanha, Lisboa","locality":"Praça de Espanha","average_cost_for_two":"60","featured_image":"https://b.zmtcdn.com/data/res_imagery/8209574_RESTAURANT_50a0ed2bdb7972141bd4e56391a86144.jpg?fit=around%7C1200%3A464&crop=1200%3A464%3B0%2C0","user_rating":4.7,"phone_number":308809240,"cuisines":["Author","Portuguese","Steak"],"schedule":["12:00","24:00"],"meal_types":["Lunch","Dinner"],"latitude":"38.7334303059","longitude":"-9.1524538770"},{"name":"O Asiático","address":"Rua da Rosa, 317, Príncipe Real, Lisboa","locality":"Príncipe Real","average_cost_for_two":"60","featured_image":"https://b.zmtcdn.com/data/res_imagery/18388604_RESTAURANT_72d584f344911cd668ac3b576aa6520d.jpg?fit=around%7C1200%3A464&crop=1200%3A464%3B0%2C0","user_rating":4.7,"phone_number":308809256,"cuisines":["Author","Oriental"],"schedule":["12:00","24:00"],"meal_types":["Lunch","Dinner"],"latitude":"38.7154700000","longitude":"-9.1461490000"},{"name":"A Cevicheria","address":"Rua Dom Pedro V, 129, Príncipe Real, Lisboa","locality":"Príncipe Real","average_cost_for_two":"60","featured_image":"https://b.zmtcdn.com/data/res_imagery/8211553_RESTAURANT_5039f2ac1bb2d82dda7e308c1379a52d.jpg?fit=around%7C1200%3A464&crop=1200%3A464%3B0%2C0","user_rating":4.7,"phone_number":218038815,"cuisines":["Author","Argentine","Peruvian","Petiscos","Portuguese"],"schedule":["12:00","24:00"],"meal_types":["Lunch","Dinner"],"latitude":"38.7159872986","longitude":"-9.1474837437"},{"name":"Belcanto","address":"Largo de São Carlos, 10, Chiado, Lisboa","locality":"Chiado","average_cost_for_two":"220","featured_image":"https://b.zmtcdn.com/data/res_imagery/8200011_RESTAURANT_f6dc8c47f215a2ce299619acaa916dde.jpg?fit=around%7C1200%3A464&crop=1200%3A464%3B0%2C0","user_rating":4.7,"phone_number":213420607,"cuisines":["Author","Mediterranean","Portuguese"],"schedule":["12:30","23:00"],"meal_types":["Lunch","Dinner"],"latitude":"38.7098762954","longitude":"-9.1414296627"},{"name":"Alma","address":"Rua da Anchieta, 15, Chiado, Lisboa","locality":"Chiado","average_cost_for_two":"100","featured_image":"https://b.zmtcdn.com/data/pictures/chains/6/8214326/9fb0beea936036839420970e1ffa4b3f.jpg?resize=1232%3A822&crop=1200%3A464%3B14%2C196","user_rating":4.7,"phone_number":213470650,"cuisines":["Author"],"schedule":["12:30","23:00"],"meal_types":["Lunch","Dinner"],"latitude":"38.7100468737","longitude":"-9.1410172731"}]